[{"name":"Luxembourg, Gare Centrale","lat":49.59997,"lon":6.13424,"dep_day":485},{"name":"Pétange, Gare","lat":49.55438,"lon":5.87922,"dep_day":247},{"name":"Esch-sur-Alzette, Gare","lat":49.49391,"lon":5.98509,"dep_day":199},{"name":"Rodange, Gare","lat":49.55096,"lon":5.8435,"dep_day":186},{"name":"Noertzange, Gare","lat":49.50801,"lon":6.05088,"dep_day":179},{"name":"Pfaffenthal-Kirchberg, Gare","lat":49.61894,"lon":6.13292,"dep_day":154},{"name":"Mersch, Gare","lat":49.75184,"lon":6.1103,"dep_day":154},{"name":"Ettelbruck, Gare","lat":49.84797,"lon":6.10773,"dep_day":154},{"name":"Lamadelaine, Gare","lat":49.55338,"lon":5.86088,"dep_day":152},{"name":"Kautenbach, Gare","lat":49.94862,"lon":6.02209,"dep_day":142},{"name":"Differdange, Gare","lat":49.52255,"lon":5.89166,"dep_day":136},{"name":"Bettembourg, Gare","lat":49.51651,"lon":6.10168,"dep_day":136},{"name":"Belval (Université), Gare","lat":49.49955,"lon":5.94628,"dep_day":136},{"name":"Schifflange, Gare","lat":49.5063,"lon":6.00979,"dep_day":136},{"name":"Walferdange, Gare","lat":49.66203,"lon":6.13621,"dep_day":116},{"name":"Dommeldange, Gare","lat":49.63383,"lon":6.13689,"dep_day":116},{"name":"Wasserbillig, Gare","lat":49.71295,"lon":6.4993,"dep_day":112},{"name":"Dippach-Reckange, Gare","lat":49.57252,"lon":5.99525,"dep_day":111},{"name":"Hollerich, Gare","lat":49.59539,"lon":6.12086,"dep_day":111},{"name":"Bascharage/Sanem, Gare","lat":49.55842,"lon":5.92459,"dep_day":111},{"name":"Sandweiler-Contern, Gare","lat":49.59909,"lon":6.21178,"dep_day":109},{"name":"Arlon, Sterpenich-Frontière","lat":49.64375,"lon":5.90426,"dep_day":86},{"name":"Arlon, Gare","lat":49.68035,"lon":5.80957,"dep_day":86},{"name":"Belvaux-Soleuvre, Gare","lat":49.51514,"lon":5.92608,"dep_day":78},{"name":"Belval-Rédange, Gare","lat":49.50316,"lon":5.92371,"dep_day":78},{"name":"Belval (Lycée), Gare","lat":49.5015,"lon":5.93471,"dep_day":78},{"name":"Schieren, Gare","lat":49.8298,"lon":6.09522,"dep_day":78},{"name":"Lorentzweiler, Gare","lat":49.69846,"lon":6.14042,"dep_day":78},{"name":"Heisdorf, Gare","lat":49.6751,"lon":6.13942,"dep_day":78},{"name":"Lintgen, Gare","lat":49.72068,"lon":6.12308,"dep_day":78},{"name":"Cruchten, Gare","lat":49.79629,"lon":6.1201,"dep_day":78},{"name":"Colmar-Berg, Gare","lat":49.81502,"lon":6.10107,"dep_day":78},{"name":"Niederkorn, Gare","lat":49.53681,"lon":5.89398,"dep_day":78},{"name":"Oberkorn, Gare","lat":49.51071,"lon":5.89093,"dep_day":78},{"name":"Diekirch, Gare","lat":49.86473,"lon":6.15407,"dep_day":78},{"name":"Rodange-Frontière (Athus)","lat":49.55177,"lon":5.82497,"dep_day":77},{"name":"Athus, Gare","lat":49.56394,"lon":5.82912,"dep_day":77},{"name":"Kleinbettingen, Gare","lat":49.64396,"lon":5.91714,"dep_day":77},{"name":"Schouweiler, Gare","lat":49.57352,"lon":5.96014,"dep_day":77},{"name":"Leudelange, Gare","lat":49.58705,"lon":6.05935,"dep_day":77},{"name":"Bertrange, Gare","lat":49.6131,"lon":6.05937,"dep_day":77},{"name":"Troisvierges, Gare","lat":50.11933,"lon":5.99101,"dep_day":76},{"name":"Wilwerwiltz, Gare","lat":49.98845,"lon":6.00054,"dep_day":76},{"name":"Drauffelt, Gare","lat":50.0169,"lon":6.00719,"dep_day":76},{"name":"Clervaux, Gare","lat":50.06158,"lon":6.02463,"dep_day":76},{"name":"Capellen, Gare","lat":49.6385,"lon":5.98238,"dep_day":75},{"name":"Mamer, Gare","lat":49.62577,"lon":6.02022,"dep_day":75},{"name":"Igel","lat":49.70737,"lon":6.55067,"dep_day":73},{"name":"Wasserbillig-Frontière","lat":49.7138,"lon":6.50657,"dep_day":73},{"name":"Oetrange, Gare","lat":49.60259,"lon":6.25833,"dep_day":71},{"name":"Betzdorf, Gare","lat":49.6888,"lon":6.34867,"dep_day":71},{"name":"Cents-Hamm, Gare","lat":49.61502,"lon":6.16598,"dep_day":71},{"name":"Wecker-Gare, Gare","lat":49.69989,"lon":6.38651,"dep_day":71},{"name":"Manternach, Gare","lat":49.70651,"lon":6.42326,"dep_day":71},{"name":"Mertert, Gare","lat":49.7032,"lon":6.47889,"dep_day":71},{"name":"Munsbach, Gare","lat":49.63056,"lon":6.26848,"dep_day":71},{"name":"Roodt-sur-Syre, Gare","lat":49.66654,"lon":6.30292,"dep_day":71},{"name":"Wiltz, Gare","lat":49.96637,"lon":5.92708,"dep_day":66},{"name":"Audun-le-Tiche, Gare","lat":49.47859,"lon":5.95873,"dep_day":63},{"name":"Mamer (Lycée), Gare","lat":49.61839,"lon":6.02976,"dep_day":56},{"name":"Tétange, Gare","lat":49.47738,"lon":6.03498,"dep_day":43},{"name":"Rumelange, Gare","lat":49.46006,"lon":6.0324,"dep_day":43},{"name":"Kayl, Gare","lat":49.48574,"lon":6.03533,"dep_day":43},{"name":"Trier, Hauptbahnhof","lat":49.75697,"lon":6.65199,"dep_day":41},{"name":"Kreuz-Konz","lat":49.70371,"lon":6.57729,"dep_day":41},{"name":"Trier, Süd","lat":49.74461,"lon":6.6368,"dep_day":41},{"name":"Michelau, Gare","lat":49.89665,"lon":6.0921,"dep_day":39},{"name":"Goebelsmühle, Gare","lat":49.92114,"lon":6.05342,"dep_day":38},{"name":"Troisvierges-Frontière","lat":50.173,"lon":5.96539,"dep_day":35},{"name":"Gouvy, Gare","lat":50.18979,"lon":5.95385,"dep_day":35},{"name":"Paradiso, Gare","lat":49.96539,"lon":5.95315,"dep_day":33},{"name":"Merkholtz, Gare","lat":49.95683,"lon":5.98156,"dep_day":33},{"name":"Trier, West","lat":49.75194,"lon":6.6236,"dep_day":32},{"name":"Trier, Pallien","lat":49.76417,"lon":6.63027,"dep_day":32},{"name":"Trier-Euren","lat":49.73807,"lon":6.61227,"dep_day":32},{"name":"Trier-Zewen","lat":49.72004,"lon":6.58097,"dep_day":32},{"name":"Trier, Hafenstrasse","lat":49.7925,"lon":6.68389,"dep_day":32},{"name":"Longwy, Gare","lat":49.51297,"lon":5.76938,"dep_day":30},{"name":"Rodange-Gr.","lat":49.54322,"lon":5.81047,"dep_day":30},{"name":"Konz, Karthaus","lat":49.71062,"lon":6.59664,"dep_day":2},{"name":"Hettange-Grande, Gare SNCF","lat":49.40757,"lon":6.15702,"dep_day":0},{"name":"Thionville, Gare","lat":49.35397,"lon":6.16967,"dep_day":0},{"name":"Dudelange, Gare-Burange","lat":49.49241,"lon":6.0862,"dep_day":0},{"name":"Dudelange (Ville), Gare","lat":49.48338,"lon":6.08318,"dep_day":0},{"name":"Bettembourg-frontière","lat":49.47221,"lon":6.10777,"dep_day":0},{"name":"Howald, Gare","lat":49.58109,"lon":6.13246,"dep_day":0},{"name":"Dudelange (Centre), Gare","lat":49.4787,"lon":6.08215,"dep_day":0},{"name":"Metz-Ville, Gare","lat":49.10946,"lon":6.17705,"dep_day":0},{"name":"Berchem, Gare","lat":49.54267,"lon":6.13375,"dep_day":0},{"name":"Volmerange-les-Mines, Gare","lat":49.45674,"lon":6.07897,"dep_day":0},{"name":"Dudelange (Usines), Gare","lat":49.47261,"lon":6.07943,"dep_day":0}]